[
    {
        "Hospital Name": "Max Super Specialty Hospital",
        "Address": "Mussoorie Diversion Road, Dehradun, Uttarakhand, 248001",
        "Specialties": "Radiology, Cardiac Care, Gynecology, Obstetrics, Dentistry",
        "Latitude": 30.37342343,
        "Longitude": 78.07448599
    },
    {
        "Hospital Name": "Kailash Hospital",
        "Address": "Main Haridwar Road, Near Rispana Bridge, Dehradun, Uttarakhand, 248001",
        "Specialties": "Multispecialty",
        "Latitude": 30.28852265,
        "Longitude": 78.06414961
    },
    {
        "Hospital Name": "Healing Touch Hospital",
        "Address": "Sahastradhara Crossing, Sahastradhara Road, Dehradun, Uttarakhand, 248001",
        "Specialties": "Bone and Joint Specialist, Orthopedic",
        "Latitude": 30.32893461,
        "Longitude": 78.06596884
    },
    {
        "Hospital Name": "Velmed Hospital",
        "Address": "Clement Town, Dehradun, Uttarakhand",
        "Specialties": "Multispecialty",
        "Latitude": 30.27234003,
        "Longitude": 78.00778905
    },
    {
        "Hospital Name": "Surya Hospital",
        "Address": "Haridwar Bypass Road (Near Railway Crossing), Dehradun, Uttarakhand, 248001",
        "Specialties": "Multispecialty (Neonatal to Geriatric care)",
        "Latitude": 30.29110491,
        "Longitude": 78.04986837
    },
    {
        "Hospital Name": "Kanishk Hospital",
        "Address": "Haridwar Bypass Road between Railway Crossing & Rispana Bridge, Dehradun, Uttarakhand",
        "Specialties": "Surgical and Super Specialty",
        "Latitude": 30.29198493,
        "Longitude": 78.05071927
    },
    {
        "Hospital Name": "Deen Dayal Upadhyaya (Coronation) Hospital",
        "Address": "Curzon Road, Dalanwala, Dehradun, Uttarakhand, 248001",
        "Specialties": "General Medicine and Surgery",
        "Latitude": 30.32094487,
        "Longitude": 78.05745915
    },
    {
        "Hospital Name": "Fortis Escorts Hospital",
        "Address": "2nd Floor, Coronation Hospital, Dalanwala, Curzon Road, Dehradun, Uttarakhand, 248001",
        "Specialties": "Cardiac Care",
        "Latitude": 30.32095209,
        "Longitude": 78.05761024
    },
    {
        "Hospital Name": "Combined Medical Institute (CMI) Hospital",
        "Address": "Haridwar Road, Dehradun, Uttarakhand",
        "Specialties": "Trauma & Emergency, Neurosurgery",
        "Latitude": 30.31250203,
        "Longitude": 78.04770788

    },
    {
        "Hospital Name": "Doon Hospital",
        "Address": "Parade Ground, Dehradun, Uttarakhand",
        "Specialties": "Government Hospital, General Medicine",
        "Latitude": 30.31990772 ,
        "Longitude": 78.04215059
    },
    {
        "Hospital Name": "Synergy Institute of Medical Sciences",
        "Address": "Balliwala Chowk, Sahastradhara Road, Dehradun, Uttarakhand",
        "Specialties": "Cardiology, Neurology, Oncology",
        "Latitude": 30.33788983,
        "Longitude": 78.01392839
    },
    {
        "Hospital Name": "Shri Mahant Indiresh Hospital",
        "Address": "Patel Nagar, Dehradun, Uttarakhand",
        "Specialties": "Cardiology, Nephrology, General Surgery",
        "Latitude": 30.30465873,
        "Longitude": 78.01392839
    },
    {
        "Hospital Name": "Shakuntala Hospital",
        "Address": "Indira Nagar, Dehradun, Uttarakhand",
        "Specialties": "Orthopedics, Gynecology, Pediatrics",
        "Latitude": null,
        "Longitude": null
    },
    {
        "Hospital Name": "Shri Guru Ram Rai Institute of Medical & Health Sciences",
        "Address": "Subhash Road, Dehradun, Uttarakhand",
        "Specialties": "Teaching Hospital, General Medicine",
        "Latitude": 30.30297496,
        "Longitude": 78.02141446
    },
    {
        "Hospital Name": "Siddharth Multispecialty Hospital",
        "Address": "GMS Road, Dehradun, Uttarakhand",
        "Specialties": "Multispecialty",
        "Latitude": 30.35739185,
        "Longitude": 78.09452504
    },
    {
        "Hospital Name": "Sanjivini Hospital",
        "Address": "Araghar, Dehradun, Uttarakhand",
        "Specialties": "Gynecology, Pediatrics, Emergency Care",
        "Latitude": 30.32200661,
        "Longitude": 78.00445762
    },
    {
        "Hospital Name": "Apollo Clinic",
        "Address": "Jakhan, Rajpur Road, Dehradun, Uttarakhand",
        "Specialties": "Diagnostic Center, General Medicine",
        "Latitude": null,
        "Longitude": null
    },
    {
        "Hospital Name": "Om Hospital",
        "Address": "Prem Nagar, Dehradun, Uttarakhand",
        "Specialties": "General Medicine & Surgery",
        "Latitude": 30.32375214,
        "Longitude": 78.01399411
    },
    {
        "Hospital Name": "Metro Hospital",
        "Address": "Vikas Nagar, Dehradun, Uttarakhand",
        "Specialties": "Trauma, Neurology, Orthopedics",
        "Latitude": null,
        "Longitude": null
    },
    {
        "Hospital Name": "Sushila Tiwari Memorial Hospital",
        "Address": "NH-72, Dehradun, Uttarakhand",
        "Specialties": "Government Hospital, Trauma Care",
        "Latitude": 30.3453177,
        "Longitude": 77.8588501619241
    }
]